{"type": "FeatureCollection", "features": [{"type": "Feature", "geometry": {"type": "Point", "coordinates": [-73.982192179399, 40.768425191113]}, "properties": {"name": "Whole Foods - Columbus Circle", "address": "10 Columbus Cir, New York, NY 10019", "borough": "Manhattan"}}, {"type": "Feature", "geometry": {"type": "Point", "coordinates": [-73.992561446365, 40.724062100505]}, "properties": {"name": "Whole Foods - Houston St", "address": "95 East Houston St, New York, NY 10002", "borough": "Manhattan"}}, {"type": "Feature", "geometry": {"type": "Point", "coordinates": [-73.995037166833, 40.745049227458]}, "properties": {"name": "Whole Foods - Chelsea", "address": "250 7th Ave, New York, NY 10001", "borough": "Manhattan"}}, {"type": "Feature", "geometry": {"type": "Point", "coordinates": [-73.966944782009, 40.759939876637]}, "properties": {"name": "Whole Foods - 57th St", "address": "226 E 57th St, New York, NY 10022", "borough": "Manhattan"}}, {"type": "Feature", "geometry": {"type": "Point", "coordinates": [-73.966278298678, 40.794677164304]}, "properties": {"name": "Whole Foods - Upper West Side", "address": "808 Columbus Ave, New York, NY 10025", "borough": "Manhattan"}}, {"type": "Feature", "geometry": {"type": "Point", "coordinates": [-73.945586510228, 40.807751492629]}, "properties": {"name": "Whole Foods - Harlem", "address": "100 W 125th St, New York, NY 10027", "borough": "Manhattan"}}, {"type": "Feature", "geometry": {"type": "Point", "coordinates": [-73.998840257339, 40.753521759992]}, "properties": {"name": "Whole Foods - Hudson Yards", "address": "450 W 33rd St, New York, NY 10001", "borough": "Manhattan"}}, {"type": "Feature", "geometry": {"type": "Point", "coordinates": [-73.953262129338, 40.779694773981]}, "properties": {"name": "Whole Foods - Upper East Side", "address": "1551 3rd Ave, New York, NY 10128", "borough": "Manhattan"}}, {"type": "Feature", "geometry": {"type": "Point", "coordinates": [-74.012402512798, 40.706785339788]}, "properties": {"name": "Whole Foods - Financial District (Broadway)", "address": "66 Broadway, New York, NY 10005", "borough": "Manhattan"}}, {"type": "Feature", "geometry": {"type": "Point", "coordinates": [-73.984627563305, 40.754256509423]}, "properties": {"name": "Whole Foods - Bryant Park", "address": "1095 6th Ave, New York, NY 10036", "borough": "Manhattan"}}, {"type": "Feature", "geometry": {"type": "Point", "coordinates": [-74.011235641464, 40.715454136593]}, "properties": {"name": "Whole Foods - Tribeca", "address": "270 Greenwich St, New York, NY 10007", "borough": "Manhattan"}}, {"type": "Feature", "geometry": {"type": "Point", "coordinates": [-73.98604287109, 40.743410387347]}, "properties": {"name": "Whole Foods - Murray Hill", "address": "63 Madison Ave, New York, NY 10016", "borough": "Manhattan"}}, {"type": "Feature", "geometry": {"type": "Point", "coordinates": [-73.99067, 40.735358]}, "properties": {"name": "Whole Foods - Union Square", "address": "4 Union Square S, New York, NY 10003", "borough": "Manhattan"}}, {"type": "Feature", "geometry": {"type": "Point", "coordinates": [-73.959616427634, 40.716163585521]}, "properties": {"name": "Whole Foods - Williamsburg", "address": "238 Bedford Ave, Brooklyn, NY 11249", "borough": "Brooklyn"}}, {"type": "Feature", "geometry": {"type": "Point", "coordinates": [-74.012379594348, 40.654626937737]}, "properties": {"name": "Whole Foods - Gowanus/Industry City", "address": "167 41st St, Brooklyn, NY 11232", "borough": "Brooklyn"}}, {"type": "Feature", "geometry": {"type": "Point", "coordinates": [-73.978256405153, 40.686670761331]}, "properties": {"name": "Whole Foods - Fort Greene", "address": "292 Ashland Pl, Brooklyn, NY 11217", "borough": "Brooklyn"}}, {"type": "Feature", "geometry": {"type": "Point", "coordinates": [-73.98871273861, 40.675352243478]}, "properties": {"name": "Whole Foods - Gowanus (3rd St)", "address": "214 3rd St, Brooklyn, NY 11215", "borough": "Brooklyn"}}]}