{"type": "FeatureCollection", "features": [{"type": "Feature", "properties": {"name": "Times Sq-42 St", "routes": ["1", "2", "3", "7", "A", "C", "E", "N", "Q", "R", "S", "W"], "borough": "M"}, "geometry": {"type": "Point", "coordinates": [-73.9875808, 40.755746]}}, {"type": "Feature", "properties": {"name": "Annadale", "routes": ["SIR"], "borough": "SI"}, "geometry": {"type": "Point", "coordinates": [-74.178217, 40.54046]}}, {"type": "Feature", "properties": {"name": "Franklin Av", "routes": ["C", "S"], "borough": "Bk"}, "geometry": {"type": "Point", "coordinates": [-73.95633749999999, 40.680988]}}, {"type": "Feature", "properties": {"name": "Junius St", "routes": ["3"], "borough": "Bk"}, "geometry": {"type": "Point", "coordinates": [-73.902447, 40.663515]}}, {"type": "Feature", "properties": {"name": "Middle Village-Metropolitan Av", "routes": ["M"], "borough": "Q"}, "geometry": {"type": "Point", "coordinates": [-73.889601, 40.711396]}}, {"type": "Feature", "properties": {"name": "34 St-Hudson Yards", "routes": ["7"], "borough": "M"}, "geometry": {"type": "Point", "coordinates": [-74.00191, 40.755882]}}, {"type": "Feature", "properties": {"name": "52 St", "routes": ["7"], "borough": "Q"}, "geometry": {"type": "Point", "coordinates": [-73.912549, 40.744149]}}, {"type": "Feature", "properties": {"name": "E 149 St", "routes": ["6"], "borough": "Bx"}, "geometry": {"type": "Point", "coordinates": [-73.904098, 40.812118]}}, {"type": "Feature", "properties": {"name": "Myrtle Av", "routes": ["J", "M", "Z"], "borough": "Bk"}, "geometry": {"type": "Point", "coordinates": [-73.935657, 40.697207]}}, {"type": "Feature", "properties": {"name": "East Broadway", "routes": ["F"], "borough": "M"}, "geometry": {"type": "Point", "coordinates": [-73.990173, 40.713715]}}, {"type": "Feature", "properties": {"name": "Avenue N", "routes": ["F"], "borough": "Bk"}, "geometry": {"type": "Point", "coordinates": [-73.974197, 40.61514]}}, {"type": "Feature", "properties": {"name": "Hoyt St", "routes": ["2", "3"], "borough": "Bk"}, "geometry": {"type": "Point", "coordinates": [-73.985065, 40.690545]}}, {"type": "Feature", "properties": {"name": "Forest Av", "routes": ["M"], "borough": "Q"}, "geometry": {"type": "Point", "coordinates": [-73.903077, 40.704423]}}, {"type": "Feature", "properties": {"name": "Tompkinsville", "routes": ["SIR"], "borough": "SI"}, "geometry": {"type": "Point", "coordinates": [-74.074835, 40.636949]}}, {"type": "Feature", "properties": {"name": "77 St", "routes": ["R"], "borough": "Bk"}, "geometry": {"type": "Point", "coordinates": [-74.02551, 40.629742]}}, {"type": "Feature", "properties": {"name": "Chambers St", "routes": ["2", "3", "A", "C", "E", "R", "W"], "borough": "M"}, "geometry": {"type": "Point", "coordinates": [-74.0095515, 40.712603]}}, {"type": "Feature", "properties": {"name": "Westchester Sq-E Tremont Av", "routes": ["6"], "borough": "Bx"}, "geometry": {"type": "Point", "coordinates": [-73.842952, 40.839892]}}, {"type": "Feature", "properties": {"name": "170 St", "routes": ["B", "D"], "borough": "Bx"}, "geometry": {"type": "Point", "coordinates": [-73.9134, 40.839306]}}, {"type": "Feature", "properties": {"name": "59 St", "routes": ["4", "5", "6", "N", "R", "W"], "borough": "M"}, "geometry": {"type": "Point", "coordinates": [-73.9676125, 40.762592999999995]}}, {"type": "Feature", "properties": {"name": "Prospect Av", "routes": ["2", "5"], "borough": "Bx"}, "geometry": {"type": "Point", "coordinates": [-73.90177, 40.819585]}}, {"type": "Feature", "properties": {"name": "Neptune Av", "routes": ["F"], "borough": "Bk"}, "geometry": {"type": "Point", "coordinates": [-73.974574, 40.581011]}}, {"type": "Feature", "properties": {"name": "Avenue U", "routes": ["N"], "borough": "Bk"}, "geometry": {"type": "Point", "coordinates": [-73.979137, 40.597473]}}, {"type": "Feature", "properties": {"name": "Morrison Av-Soundview", "routes": ["6"], "borough": "Bx"}, "geometry": {"type": "Point", "coordinates": [-73.874516, 40.829521]}}, {"type": "Feature", "properties": {"name": "Bay Pkwy", "routes": ["F"], "borough": "Bk"}, "geometry": {"type": "Point", "coordinates": [-73.975264, 40.620769]}}, {"type": "Feature", "properties": {"name": "5 Av/59 St", "routes": ["N", "R", "W"], "borough": "M"}, "geometry": {"type": "Point", "coordinates": [-73.973347, 40.764811]}}, {"type": "Feature", "properties": {"name": "25 Av", "routes": ["D"], "borough": "Bk"}, "geometry": {"type": "Point", "coordinates": [-73.986829, 40.597704]}}, {"type": "Feature", "properties": {"name": "116 St", "routes": ["6"], "borough": "M"}, "geometry": {"type": "Point", "coordinates": [-73.941617, 40.798629]}}, {"type": "Feature", "properties": {"name": "Beach 105 St", "routes": ["A", "S"], "borough": "Q"}, "geometry": {"type": "Point", "coordinates": [-73.827559, 40.583209]}}, {"type": "Feature", "properties": {"name": "Briarwood", "routes": ["E", "F"], "borough": "Q"}, "geometry": {"type": "Point", "coordinates": [-73.820574, 40.709179]}}, {"type": "Feature", "properties": {"name": "23 St", "routes": ["R", "W"], "borough": "M"}, "geometry": {"type": "Point", "coordinates": [-73.989344, 40.741303]}}, {"type": "Feature", "properties": {"name": "28 St", "routes": ["R", "W"], "borough": "M"}, "geometry": {"type": "Point", "coordinates": [-73.988691, 40.745494]}}, {"type": "Feature", "properties": {"name": "145 St", "routes": ["1"], "borough": "M"}, "geometry": {"type": "Point", "coordinates": [-73.95036, 40.826551]}}, {"type": "Feature", "properties": {"name": "Dyckman St", "routes": ["A"], "borough": "M"}, "geometry": {"type": "Point", "coordinates": [-73.927271, 40.865491]}}, {"type": "Feature", "properties": {"name": "Marcy Av", "routes": ["J", "M", "Z"], "borough": "Bk"}, "geometry": {"type": "Point", "coordinates": [-73.957757, 40.708359]}}, {"type": "Feature", "properties": {"name": "Hunters Point Av", "routes": ["7"], "borough": "Q"}, "geometry": {"type": "Point", "coordinates": [-73.948916, 40.742216]}}, {"type": "Feature", "properties": {"name": "116 St", "routes": ["B", "C"], "borough": "M"}, "geometry": {"type": "Point", "coordinates": [-73.954882, 40.805085]}}, {"type": "Feature", "properties": {"name": "Jay St-MetroTech", "routes": ["A", "C", "F", "R"], "borough": "Bk"}, "geometry": {"type": "Point", "coordinates": [-73.98664199999999, 40.692259]}}, {"type": "Feature", "properties": {"name": "45 St", "routes": ["R"], "borough": "Bk"}, "geometry": {"type": "Point", "coordinates": [-74.010006, 40.648939]}}, {"type": "Feature", "properties": {"name": "Liberty Av", "routes": ["C"], "borough": "Bk"}, "geometry": {"type": "Point", "coordinates": [-73.896548, 40.674542]}}, {"type": "Feature", "properties": {"name": "Classon Av", "routes": ["G"], "borough": "Bk"}, "geometry": {"type": "Point", "coordinates": [-73.96007, 40.688873]}}, {"type": "Feature", "properties": {"name": "Cortelyou Rd", "routes": ["Q"], "borough": "Bk"}, "geometry": {"type": "Point", "coordinates": [-73.963891, 40.640927]}}, {"type": "Feature", "properties": {"name": "36 St", "routes": ["M", "R"], "borough": "Q"}, "geometry": {"type": "Point", "coordinates": [-73.928781, 40.752039]}}, {"type": "Feature", "properties": {"name": "Fulton St", "routes": ["2", "3", "4", "5", "A", "C", "J", "Z"], "borough": "M"}, "geometry": {"type": "Point", "coordinates": [-74.00783824999999, 40.71008875]}}, {"type": "Feature", "properties": {"name": "Bronx Park East", "routes": ["2", "5"], "borough": "Bx"}, "geometry": {"type": "Point", "coordinates": [-73.868457, 40.848828]}}, {"type": "Feature", "properties": {"name": "Gun Hill Rd", "routes": ["5"], "borough": "Bx"}, "geometry": {"type": "Point", "coordinates": [-73.846384, 40.869526]}}, {"type": "Feature", "properties": {"name": "79 St", "routes": ["D"], "borough": "Bk"}, "geometry": {"type": "Point", "coordinates": [-74.00061, 40.613501]}}, {"type": "Feature", "properties": {"name": "Metropolitan Av", "routes": ["G", "L"], "borough": "Bk"}, "geometry": {"type": "Point", "coordinates": [-73.95084650000001, 40.7134275]}}, {"type": "Feature", "properties": {"name": "Queens Plaza", "routes": ["E", "F", "R"], "borough": "Q"}, "geometry": {"type": "Point", "coordinates": [-73.937243, 40.748973]}}, {"type": "Feature", "properties": {"name": "Kingsbridge Rd", "routes": ["4"], "borough": "Bx"}, "geometry": {"type": "Point", "coordinates": [-73.897174, 40.86776]}}, {"type": "Feature", "properties": {"name": "Canal St", "routes": ["6", "J", "N", "Q", "R", "W", "Z"], "borough": "M"}, "geometry": {"type": "Point", "coordinates": [-74.00058, 40.718701249999995]}}, {"type": "Feature", "properties": {"name": "191 St", "routes": ["1"], "borough": "M"}, "geometry": {"type": "Point", "coordinates": [-73.929412, 40.855225]}}, {"type": "Feature", "properties": {"name": "67 Av", "routes": ["M", "R"], "borough": "Q"}, "geometry": {"type": "Point", "coordinates": [-73.852719, 40.726523]}}, {"type": "Feature", "properties": {"name": "Broadway Junction", "routes": ["A", "C", "J", "L", "Z"], "borough": "Bk"}, "geometry": {"type": "Point", "coordinates": [-73.90435599999999, 40.678896]}}, {"type": "Feature", "properties": {"name": "Astoria-Ditmars Blvd", "routes": ["N", "W"], "borough": "Q"}, "geometry": {"type": "Point", "coordinates": [-73.912034, 40.775036]}}, {"type": "Feature", "properties": {"name": "Newkirk Av-Little Haiti", "routes": ["2", "5"], "borough": "Bk"}, "geometry": {"type": "Point", "coordinates": [-73.948411, 40.639967]}}, {"type": "Feature", "properties": {"name": "Jefferson St", "routes": ["L"], "borough": "Bk"}, "geometry": {"type": "Point", "coordinates": [-73.922913, 40.706607]}}, {"type": "Feature", "properties": {"name": "Dongan Hills", "routes": ["SIR"], "borough": "SI"}, "geometry": {"type": "Point", "coordinates": [-74.09609, 40.588849]}}, {"type": "Feature", "properties": {"name": "Aqueduct Racetrack", "routes": ["A"], "borough": "Q"}, "geometry": {"type": "Point", "coordinates": [-73.835919, 40.672097]}}, {"type": "Feature", "properties": {"name": "Cleveland St", "routes": ["J"], "borough": "Bk"}, "geometry": {"type": "Point", "coordinates": [-73.884639, 40.679947]}}, {"type": "Feature", "properties": {"name": "86 St", "routes": ["B", "C"], "borough": "M"}, "geometry": {"type": "Point", "coordinates": [-73.968916, 40.785868]}}, {"type": "Feature", "properties": {"name": "Grant Av", "routes": ["A"], "borough": "Bk"}, "geometry": {"type": "Point", "coordinates": [-73.86505, 40.677044]}}, {"type": "Feature", "properties": {"name": "65 St", "routes": ["M", "R"], "borough": "Q"}, "geometry": {"type": "Point", "coordinates": [-73.898453, 40.749669]}}, {"type": "Feature", "properties": {"name": "Avenue M", "routes": ["Q"], "borough": "Bk"}, "geometry": {"type": "Point", "coordinates": [-73.959399, 40.617618]}}, {"type": "Feature", "properties": {"name": "238 St", "routes": ["1"], "borough": "Bx"}, "geometry": {"type": "Point", "coordinates": [-73.90087, 40.884667]}}, {"type": "Feature", "properties": {"name": "Eastern Pkwy-Brooklyn Museum", "routes": ["2", "3"], "borough": "Bk"}, "geometry": {"type": "Point", "coordinates": [-73.964375, 40.671987]}}, {"type": "Feature", "properties": {"name": "Bleecker St", "routes": ["6", "B", "D", "F", "M"], "borough": "M"}, "geometry": {"type": "Point", "coordinates": [-73.9954315, 40.725606]}}, {"type": "Feature", "properties": {"name": "Beverley Rd", "routes": ["Q"], "borough": "Bk"}, "geometry": {"type": "Point", "coordinates": [-73.964492, 40.644031]}}, {"type": "Feature", "properties": {"name": "111 St", "routes": ["7"], "borough": "Q"}, "geometry": {"type": "Point", "coordinates": [-73.855334, 40.75173]}}, {"type": "Feature", "properties": {"name": "125 St", "routes": ["A", "B", "C", "D"], "borough": "M"}, "geometry": {"type": "Point", "coordinates": [-73.952343, 40.811109]}}, {"type": "Feature", "properties": {"name": "23 St", "routes": ["F", "M"], "borough": "M"}, "geometry": {"type": "Point", "coordinates": [-73.992821, 40.742878]}}, {"type": "Feature", "properties": {"name": "Wall St", "routes": ["4", "5"], "borough": "M"}, "geometry": {"type": "Point", "coordinates": [-74.011862, 40.707557]}}, {"type": "Feature", "properties": {"name": "Kings Hwy", "routes": ["N"], "borough": "Bk"}, "geometry": {"type": "Point", "coordinates": [-73.980353, 40.603923]}}, {"type": "Feature", "properties": {"name": "137 St-City College", "routes": ["1"], "borough": "M"}, "geometry": {"type": "Point", "coordinates": [-73.953676, 40.822008]}}, {"type": "Feature", "properties": {"name": "116 St", "routes": ["2", "3"], "borough": "M"}, "geometry": {"type": "Point", "coordinates": [-73.949625, 40.802098]}}, {"type": "Feature", "properties": {"name": "Franklin St", "routes": ["1"], "borough": "M"}, "geometry": {"type": "Point", "coordinates": [-74.006886, 40.719318]}}, {"type": "Feature", "properties": {"name": "176 St", "routes": ["4"], "borough": "Bx"}, "geometry": {"type": "Point", "coordinates": [-73.911794, 40.84848]}}, {"type": "Feature", "properties": {"name": "7 Av", "routes": ["B", "D", "E"], "borough": "M"}, "geometry": {"type": "Point", "coordinates": [-73.981637, 40.762862]}}, {"type": "Feature", "properties": {"name": "174-175 Sts", "routes": ["B", "D"], "borough": "Bx"}, "geometry": {"type": "Point", "coordinates": [-73.910136, 40.8459]}}, {"type": "Feature", "properties": {"name": "23 St", "routes": ["C", "E"], "borough": "M"}, "geometry": {"type": "Point", "coordinates": [-73.998041, 40.745906]}}, {"type": "Feature", "properties": {"name": "Nostrand Av", "routes": ["A", "C"], "borough": "Bk"}, "geometry": {"type": "Point", "coordinates": [-73.950426, 40.680438]}}, {"type": "Feature", "properties": {"name": "Fort Hamilton Pkwy", "routes": ["N"], "borough": "Bk"}, "geometry": {"type": "Point", "coordinates": [-74.005351, 40.631386]}}, {"type": "Feature", "properties": {"name": "Pelham Pkwy", "routes": ["5"], "borough": "Bx"}, "geometry": {"type": "Point", "coordinates": [-73.855359, 40.858985]}}, {"type": "Feature", "properties": {"name": "36 Av", "routes": ["N", "W"], "borough": "Q"}, "geometry": {"type": "Point", "coordinates": [-73.929575, 40.756804]}}, {"type": "Feature", "properties": {"name": "Bedford Park Blvd", "routes": ["B", "D"], "borough": "Bx"}, "geometry": {"type": "Point", "coordinates": [-73.887138, 40.873244]}}, {"type": "Feature", "properties": {"name": "3 Av-138 St", "routes": ["6"], "borough": "Bx"}, "geometry": {"type": "Point", "coordinates": [-73.926138, 40.810476]}}, {"type": "Feature", "properties": {"name": "Central Av", "routes": ["M"], "borough": "Bk"}, "geometry": {"type": "Point", "coordinates": [-73.927397, 40.697857]}}, {"type": "Feature", "properties": {"name": "Sterling St", "routes": ["2", "5"], "borough": "Bk"}, "geometry": {"type": "Point", "coordinates": [-73.95085, 40.662742]}}, {"type": "Feature", "properties": {"name": "Smith-9 Sts", "routes": ["F", "G"], "borough": "Bk"}, "geometry": {"type": "Point", "coordinates": [-73.995959, 40.67358]}}, {"type": "Feature", "properties": {"name": "Elder Av", "routes": ["6"], "borough": "Bx"}, "geometry": {"type": "Point", "coordinates": [-73.879159, 40.828584]}}, {"type": "Feature", "properties": {"name": "96 St", "routes": ["Q"], "borough": "M"}, "geometry": {"type": "Point", "coordinates": [-73.947152, 40.784318]}}, {"type": "Feature", "properties": {"name": "Stapleton", "routes": ["SIR"], "borough": "SI"}, "geometry": {"type": "Point", "coordinates": [-74.075162, 40.627915]}}, {"type": "Feature", "properties": {"name": "Fresh Pond Rd", "routes": ["M"], "borough": "Q"}, "geometry": {"type": "Point", "coordinates": [-73.895877, 40.706186]}}, {"type": "Feature", "properties": {"name": "163 St-Amsterdam Av", "routes": ["C"], "borough": "M"}, "geometry": {"type": "Point", "coordinates": [-73.939892, 40.836013]}}, {"type": "Feature", "properties": {"name": "DeKalb Av", "routes": ["B", "Q", "R"], "borough": "Bk"}, "geometry": {"type": "Point", "coordinates": [-73.981824, 40.690635]}}, {"type": "Feature", "properties": {"name": "28 St", "routes": ["6"], "borough": "M"}, "geometry": {"type": "Point", "coordinates": [-73.984264, 40.74307]}}, {"type": "Feature", "properties": {"name": "103 St", "routes": ["1"], "borough": "M"}, "geometry": {"type": "Point", "coordinates": [-73.968379, 40.799446]}}, {"type": "Feature", "properties": {"name": "21 St-Queensbridge", "routes": ["M"], "borough": "Q"}, "geometry": {"type": "Point", "coordinates": [-73.942836, 40.754203]}}, {"type": "Feature", "properties": {"name": "Nereid Av", "routes": ["2", "5"], "borough": "Bx"}, "geometry": {"type": "Point", "coordinates": [-73.854376, 40.898379]}}, {"type": "Feature", "properties": {"name": "104 St", "routes": ["J", "Z"], "borough": "Q"}, "geometry": {"type": "Point", "coordinates": [-73.84433, 40.695178]}}, {"type": "Feature", "properties": {"name": "Atlantic Av", "routes": ["L"], "borough": "Bk"}, "geometry": {"type": "Point", "coordinates": [-73.903097, 40.675345]}}, {"type": "Feature", "properties": {"name": "Nevins St", "routes": ["2", "3", "4", "5"], "borough": "Bk"}, "geometry": {"type": "Point", "coordinates": [-73.980492, 40.688246]}}, {"type": "Feature", "properties": {"name": "Sutter Av", "routes": ["L"], "borough": "Bk"}, "geometry": {"type": "Point", "coordinates": [-73.901975, 40.669367]}}, {"type": "Feature", "properties": {"name": "Atlantic Av-Barclays Ctr", "routes": ["2", "3", "4", "5", "B", "D", "N", "Q", "R"], "borough": "Bk"}, "geometry": {"type": "Point", "coordinates": [-73.97778866666665, 40.68416166666667]}}, {"type": "Feature", "properties": {"name": "Zerega Av", "routes": ["6"], "borough": "Bx"}, "geometry": {"type": "Point", "coordinates": [-73.847036, 40.836488]}}, {"type": "Feature", "properties": {"name": "Church Av", "routes": ["F", "G"], "borough": "Bk"}, "geometry": {"type": "Point", "coordinates": [-73.979678, 40.644041]}}, {"type": "Feature", "properties": {"name": "W 8 St-NY Aquarium", "routes": ["F", "Q"], "borough": "Bk"}, "geometry": {"type": "Point", "coordinates": [-73.975939, 40.576127]}}, {"type": "Feature", "properties": {"name": "Avenue P", "routes": ["F"], "borough": "Bk"}, "geometry": {"type": "Point", "coordinates": [-73.973022, 40.608944]}}, {"type": "Feature", "properties": {"name": "161 St-Yankee Stadium", "routes": ["4", "B", "D"], "borough": "Bx"}, "geometry": {"type": "Point", "coordinates": [-73.925741, 40.8279495]}}, {"type": "Feature", "properties": {"name": "Harlem-148 St", "routes": ["3"], "borough": "M"}, "geometry": {"type": "Point", "coordinates": [-73.93647, 40.82388]}}, {"type": "Feature", "properties": {"name": "14 St", "routes": ["1", "2", "3", "F", "L", "M"], "borough": "M"}, "geometry": {"type": "Point", "coordinates": [-73.997732, 40.737796333333335]}}, {"type": "Feature", "properties": {"name": "Beach 44 St", "routes": ["A"], "borough": "Q"}, "geometry": {"type": "Point", "coordinates": [-73.776013, 40.592943]}}, {"type": "Feature", "properties": {"name": "Intervale Av", "routes": ["2", "5"], "borough": "Bx"}, "geometry": {"type": "Point", "coordinates": [-73.896736, 40.822181]}}, {"type": "Feature", "properties": {"name": "Wakefield-241 St", "routes": ["2"], "borough": "Bx"}, "geometry": {"type": "Point", "coordinates": [-73.85062, 40.903125]}}, {"type": "Feature", "properties": {"name": "Delancey St-Essex St", "routes": ["F", "J", "M", "Z"], "borough": "M"}, "geometry": {"type": "Point", "coordinates": [-73.9877755, 40.718463]}}, {"type": "Feature", "properties": {"name": "111 St", "routes": ["J"], "borough": "Q"}, "geometry": {"type": "Point", "coordinates": [-73.836345, 40.697418]}}, {"type": "Feature", "properties": {"name": "Jamaica-179 St", "routes": ["F"], "borough": "Q"}, "geometry": {"type": "Point", "coordinates": [-73.783817, 40.712646]}}, {"type": "Feature", "properties": {"name": "Longwood Av", "routes": ["6"], "borough": "Bx"}, "geometry": {"type": "Point", "coordinates": [-73.896435, 40.816104]}}, {"type": "Feature", "properties": {"name": "Cathedral Pkwy (110 St)", "routes": ["1"], "borough": "M"}, "geometry": {"type": "Point", "coordinates": [-73.966847, 40.803967]}}, {"type": "Feature", "properties": {"name": "57 St-7 Av", "routes": ["N", "Q", "R", "W"], "borough": "M"}, "geometry": {"type": "Point", "coordinates": [-73.980658, 40.764664]}}, {"type": "Feature", "properties": {"name": "Castle Hill Av", "routes": ["6"], "borough": "Bx"}, "geometry": {"type": "Point", "coordinates": [-73.851222, 40.834255]}}, {"type": "Feature", "properties": {"name": "Bay Pkwy", "routes": ["D"], "borough": "Bk"}, "geometry": {"type": "Point", "coordinates": [-73.993728, 40.601875]}}, {"type": "Feature", "properties": {"name": "110 St", "routes": ["6"], "borough": "M"}, "geometry": {"type": "Point", "coordinates": [-73.94425, 40.79502]}}, {"type": "Feature", "properties": {"name": "Wall St", "routes": ["2", "3"], "borough": "M"}, "geometry": {"type": "Point", "coordinates": [-74.0091, 40.706821]}}, {"type": "Feature", "properties": {"name": "Beach 98 St", "routes": ["A", "S"], "borough": "Q"}, "geometry": {"type": "Point", "coordinates": [-73.820558, 40.585307]}}, {"type": "Feature", "properties": {"name": "49 St", "routes": ["N", "R", "W"], "borough": "M"}, "geometry": {"type": "Point", "coordinates": [-73.984139, 40.759901]}}, {"type": "Feature", "properties": {"name": "155 St", "routes": ["B", "D"], "borough": "M"}, "geometry": {"type": "Point", "coordinates": [-73.938209, 40.830135]}}, {"type": "Feature", "properties": {"name": "Huguenot", "routes": ["SIR"], "borough": "SI"}, "geometry": {"type": "Point", "coordinates": [-74.191794, 40.533674]}}, {"type": "Feature", "properties": {"name": "Pennsylvania Av", "routes": ["3"], "borough": "Bk"}, "geometry": {"type": "Point", "coordinates": [-73.894895, 40.664635]}}, {"type": "Feature", "properties": {"name": "46 St-Bliss St", "routes": ["7"], "borough": "Q"}, "geometry": {"type": "Point", "coordinates": [-73.918435, 40.743132]}}, {"type": "Feature", "properties": {"name": "E 180 St", "routes": ["2", "5"], "borough": "Bx"}, "geometry": {"type": "Point", "coordinates": [-73.873488, 40.841894]}}, {"type": "Feature", "properties": {"name": "Burnside Av", "routes": ["4"], "borough": "Bx"}, "geometry": {"type": "Point", "coordinates": [-73.907684, 40.853453]}}, {"type": "Feature", "properties": {"name": "86 St", "routes": ["Q"], "borough": "M"}, "geometry": {"type": "Point", "coordinates": [-73.951787, 40.777891]}}, {"type": "Feature", "properties": {"name": "5 Av/53 St", "routes": ["E", "F"], "borough": "M"}, "geometry": {"type": "Point", "coordinates": [-73.975224, 40.760167]}}, {"type": "Feature", "properties": {"name": "Broadway", "routes": ["G"], "borough": "Bk"}, "geometry": {"type": "Point", "coordinates": [-73.950308, 40.706092]}}, {"type": "Feature", "properties": {"name": "59 St-Columbus Circle", "routes": ["1", "A", "B", "C", "D"], "borough": "M"}, "geometry": {"type": "Point", "coordinates": [-73.9818325, 40.7682715]}}, {"type": "Feature", "properties": {"name": "Gun Hill Rd", "routes": ["2", "5"], "borough": "Bx"}, "geometry": {"type": "Point", "coordinates": [-73.866256, 40.87785]}}, {"type": "Feature", "properties": {"name": "34 St-Penn Station", "routes": ["1", "2", "3"], "borough": "M"}, "geometry": {"type": "Point", "coordinates": [-73.991057, 40.750373]}}, {"type": "Feature", "properties": {"name": "Neck Rd", "routes": ["Q"], "borough": "Bk"}, "geometry": {"type": "Point", "coordinates": [-73.955161, 40.595246]}}, {"type": "Feature", "properties": {"name": "Rockaway Blvd", "routes": ["A"], "borough": "Q"}, "geometry": {"type": "Point", "coordinates": [-73.843853, 40.680429]}}, {"type": "Feature", "properties": {"name": "Bay Ridge Av", "routes": ["R"], "borough": "Bk"}, "geometry": {"type": "Point", "coordinates": [-74.023377, 40.634967]}}, {"type": "Feature", "properties": {"name": "Coney Island-Stillwell Av", "routes": ["D", "F", "N", "Q"], "borough": "Bk"}, "geometry": {"type": "Point", "coordinates": [-73.981233, 40.577422]}}, {"type": "Feature", "properties": {"name": "68 St-Hunter College", "routes": ["6"], "borough": "M"}, "geometry": {"type": "Point", "coordinates": [-73.96387, 40.768141]}}, {"type": "Feature", "properties": {"name": "Northern Blvd", "routes": ["M", "R"], "borough": "Q"}, "geometry": {"type": "Point", "coordinates": [-73.906006, 40.752885]}}, {"type": "Feature", "properties": {"name": "Canarsie-Rockaway Pkwy", "routes": ["L"], "borough": "Bk"}, "geometry": {"type": "Point", "coordinates": [-73.90185, 40.646654]}}, {"type": "Feature", "properties": {"name": "14 St", "routes": ["A", "C", "E", "L"], "borough": "M"}, "geometry": {"type": "Point", "coordinates": [-74.002134, 40.740335]}}, {"type": "Feature", "properties": {"name": "Court Sq", "routes": ["7", "E", "F", "G"], "borough": "Q"}, "geometry": {"type": "Point", "coordinates": [-73.945032, 40.747141]}}, {"type": "Feature", "properties": {"name": "Grand Army Plaza", "routes": ["2", "3"], "borough": "Bk"}, "geometry": {"type": "Point", "coordinates": [-73.971046, 40.675235]}}, {"type": "Feature", "properties": {"name": "Kosciuszko St", "routes": ["J"], "borough": "Bk"}, "geometry": {"type": "Point", "coordinates": [-73.928814, 40.693342]}}, {"type": "Feature", "properties": {"name": "Knickerbocker Av", "routes": ["M"], "borough": "Bk"}, "geometry": {"type": "Point", "coordinates": [-73.919711, 40.698664]}}, {"type": "Feature", "properties": {"name": "Brook Av", "routes": ["6"], "borough": "Bx"}, "geometry": {"type": "Point", "coordinates": [-73.91924, 40.807566]}}, {"type": "Feature", "properties": {"name": "Aqueduct-N Conduit Av", "routes": ["A"], "borough": "Q"}, "geometry": {"type": "Point", "coordinates": [-73.834058, 40.668234]}}, {"type": "Feature", "properties": {"name": "Oakwood Heights", "routes": ["SIR"], "borough": "SI"}, "geometry": {"type": "Point", "coordinates": [-74.12632, 40.56511]}}, {"type": "Feature", "properties": {"name": "72 St", "routes": ["1", "2", "3"], "borough": "M"}, "geometry": {"type": "Point", "coordinates": [-73.98197, 40.778453]}}, {"type": "Feature", "properties": {"name": "71 St", "routes": ["D"], "borough": "Bk"}, "geometry": {"type": "Point", "coordinates": [-73.998864, 40.619589]}}, {"type": "Feature", "properties": {"name": "Crown Hts-Utica Av", "routes": ["3", "4"], "borough": "Bk"}, "geometry": {"type": "Point", "coordinates": [-73.932942, 40.668897]}}, {"type": "Feature", "properties": {"name": "82 St-Jackson Hts", "routes": ["7"], "borough": "Q"}, "geometry": {"type": "Point", "coordinates": [-73.883697, 40.747659]}}, {"type": "Feature", "properties": {"name": "Van Siclen Av", "routes": ["J", "Z"], "borough": "Bk"}, "geometry": {"type": "Point", "coordinates": [-73.891688, 40.678024]}}, {"type": "Feature", "properties": {"name": "Graham Av", "routes": ["L"], "borough": "Bk"}, "geometry": {"type": "Point", "coordinates": [-73.944053, 40.714565]}}, {"type": "Feature", "properties": {"name": "75 St-Elderts Ln", "routes": ["J", "Z"], "borough": "Q"}, "geometry": {"type": "Point", "coordinates": [-73.867139, 40.691324]}}, {"type": "Feature", "properties": {"name": "Mets-Willets Point", "routes": ["7"], "borough": "Q"}, "geometry": {"type": "Point", "coordinates": [-73.845625, 40.754622]}}, {"type": "Feature", "properties": {"name": "Spring St", "routes": ["6"], "borough": "M"}, "geometry": {"type": "Point", "coordinates": [-73.997141, 40.722301]}}, {"type": "Feature", "properties": {"name": "57 St", "routes": ["M"], "borough": "M"}, "geometry": {"type": "Point", "coordinates": [-73.97745, 40.763972]}}, {"type": "Feature", "properties": {"name": "110 St-Malcolm X Plaza", "routes": ["2", "3"], "borough": "M"}, "geometry": {"type": "Point", "coordinates": [-73.951822, 40.799075]}}, {"type": "Feature", "properties": {"name": "96 St", "routes": ["B", "C"], "borough": "M"}, "geometry": {"type": "Point", "coordinates": [-73.964696, 40.791642]}}, {"type": "Feature", "properties": {"name": "36 St", "routes": ["D", "N", "R"], "borough": "Bk"}, "geometry": {"type": "Point", "coordinates": [-74.003549, 40.655144]}}, {"type": "Feature", "properties": {"name": "Sutphin Blvd", "routes": ["F"], "borough": "Q"}, "geometry": {"type": "Point", "coordinates": [-73.810708, 40.70546]}}, {"type": "Feature", "properties": {"name": "Euclid Av", "routes": ["A", "C"], "borough": "Bk"}, "geometry": {"type": "Point", "coordinates": [-73.872106, 40.675377]}}, {"type": "Feature", "properties": {"name": "Prince St", "routes": ["R", "W"], "borough": "M"}, "geometry": {"type": "Point", "coordinates": [-73.997702, 40.724329]}}, {"type": "Feature", "properties": {"name": "181 St", "routes": ["1"], "borough": "M"}, "geometry": {"type": "Point", "coordinates": [-73.933596, 40.849505]}}, {"type": "Feature", "properties": {"name": "Old Town", "routes": ["SIR"], "borough": "SI"}, "geometry": {"type": "Point", "coordinates": [-74.087368, 40.596612]}}, {"type": "Feature", "properties": {"name": "Canal St", "routes": ["A", "C", "E"], "borough": "M"}, "geometry": {"type": "Point", "coordinates": [-74.005229, 40.720824]}}, {"type": "Feature", "properties": {"name": "Inwood-207 St", "routes": ["A"], "borough": "M"}, "geometry": {"type": "Point", "coordinates": [-73.919899, 40.868072]}}, {"type": "Feature", "properties": {"name": "Avenue J", "routes": ["Q"], "borough": "Bk"}, "geometry": {"type": "Point", "coordinates": [-73.960803, 40.625039]}}, {"type": "Feature", "properties": {"name": "Beverly Rd", "routes": ["2", "5"], "borough": "Bk"}, "geometry": {"type": "Point", "coordinates": [-73.948959, 40.645098]}}, {"type": "Feature", "properties": {"name": "90 St-Elmhurst Av", "routes": ["7"], "borough": "Q"}, "geometry": {"type": "Point", "coordinates": [-73.876613, 40.748408]}}, {"type": "Feature", "properties": {"name": "Hewes St", "routes": ["J", "M"], "borough": "Bk"}, "geometry": {"type": "Point", "coordinates": [-73.953431, 40.70687]}}, {"type": "Feature", "properties": {"name": "Bedford Park Blvd-Lehman College", "routes": ["4"], "borough": "Bx"}, "geometry": {"type": "Point", "coordinates": [-73.890064, 40.873412]}}, {"type": "Feature", "properties": {"name": "14 St-Union Sq", "routes": ["4", "5", "6", "L", "N", "Q", "R", "W"], "borough": "M"}, "geometry": {"type": "Point", "coordinates": [-73.99041633333333, 40.735065999999996]}}, {"type": "Feature", "properties": {"name": "Morgan Av", "routes": ["L"], "borough": "Bk"}, "geometry": {"type": "Point", "coordinates": [-73.933147, 40.706152]}}, {"type": "Feature", "properties": {"name": "47-50 Sts-Rockefeller Ctr", "routes": ["B", "D", "F", "M"], "borough": "M"}, "geometry": {"type": "Point", "coordinates": [-73.981329, 40.758663]}}, {"type": "Feature", "properties": {"name": "Canal St", "routes": ["1"], "borough": "M"}, "geometry": {"type": "Point", "coordinates": [-74.006277, 40.722854]}}, {"type": "Feature", "properties": {"name": "104 St", "routes": ["A"], "borough": "Q"}, "geometry": {"type": "Point", "coordinates": [-73.837683, 40.681711]}}, {"type": "Feature", "properties": {"name": "Chambers St", "routes": ["4", "5", "6", "J", "Z"], "borough": "M"}, "geometry": {"type": "Point", "coordinates": [-74.003766, 40.713154]}}, {"type": "Feature", "properties": {"name": "3 Av", "routes": ["L"], "borough": "M"}, "geometry": {"type": "Point", "coordinates": [-73.986122, 40.732849]}}, {"type": "Feature", "properties": {"name": "Kingsbridge Rd", "routes": ["B", "D"], "borough": "Bx"}, "geometry": {"type": "Point", "coordinates": [-73.893509, 40.866978]}}, {"type": "Feature", "properties": {"name": "Kingston Av", "routes": ["3"], "borough": "Bk"}, "geometry": {"type": "Point", "coordinates": [-73.942161, 40.669399]}}, {"type": "Feature", "properties": {"name": "Rector St", "routes": ["R", "W"], "borough": "M"}, "geometry": {"type": "Point", "coordinates": [-74.013342, 40.70722]}}, {"type": "Feature", "properties": {"name": "Cypress Hills", "routes": ["J"], "borough": "Bk"}, "geometry": {"type": "Point", "coordinates": [-73.87255, 40.689941]}}, {"type": "Feature", "properties": {"name": "High St", "routes": ["A", "C"], "borough": "Bk"}, "geometry": {"type": "Point", "coordinates": [-73.990531, 40.699337]}}, {"type": "Feature", "properties": {"name": "Forest Hills-71 Av", "routes": ["E", "F", "M", "R"], "borough": "Q"}, "geometry": {"type": "Point", "coordinates": [-73.844521, 40.721691]}}, {"type": "Feature", "properties": {"name": "Wilson Av", "routes": ["L"], "borough": "Bk"}, "geometry": {"type": "Point", "coordinates": [-73.904046, 40.688764]}}, {"type": "Feature", "properties": {"name": "Bedford-Nostrand Avs", "routes": ["G"], "borough": "Bk"}, "geometry": {"type": "Point", "coordinates": [-73.953522, 40.689627]}}, {"type": "Feature", "properties": {"name": "Arthur Kill", "routes": ["SIR"], "borough": "SI"}, "geometry": {"type": "Point", "coordinates": [-74.242096, 40.516578]}}, {"type": "Feature", "properties": {"name": "Livonia Av", "routes": ["L"], "borough": "Bk"}, "geometry": {"type": "Point", "coordinates": [-73.900571, 40.664038]}}, {"type": "Feature", "properties": {"name": "18 St", "routes": ["1"], "borough": "M"}, "geometry": {"type": "Point", "coordinates": [-73.997871, 40.74104]}}, {"type": "Feature", "properties": {"name": "Halsey St", "routes": ["L"], "borough": "Q"}, "geometry": {"type": "Point", "coordinates": [-73.904084, 40.695602]}}, {"type": "Feature", "properties": {"name": "5 Av", "routes": ["7", "B", "D", "F", "M"], "borough": "M"}, "geometry": {"type": "Point", "coordinates": [-73.98326599999999, 40.7540215]}}, {"type": "Feature", "properties": {"name": "Carroll St", "routes": ["F", "G"], "borough": "Bk"}, "geometry": {"type": "Point", "coordinates": [-73.995048, 40.680303]}}, {"type": "Feature", "properties": {"name": "President St-Medgar Evers College", "routes": ["2", "5"], "borough": "Bk"}, "geometry": {"type": "Point", "coordinates": [-73.950683, 40.667883]}}, {"type": "Feature", "properties": {"name": "Ditmas Av", "routes": ["F"], "borough": "Bk"}, "geometry": {"type": "Point", "coordinates": [-73.978172, 40.636119]}}, {"type": "Feature", "properties": {"name": "Kings Hwy", "routes": ["F"], "borough": "Bk"}, "geometry": {"type": "Point", "coordinates": [-73.972361, 40.603217]}}, {"type": "Feature", "properties": {"name": "149 St-Grand Concourse", "routes": ["2", "4", "5"], "borough": "Bx"}, "geometry": {"type": "Point", "coordinates": [-73.92703449999999, 40.8183925]}}, {"type": "Feature", "properties": {"name": "New Dorp", "routes": ["SIR"], "borough": "SI"}, "geometry": {"type": "Point", "coordinates": [-74.11721, 40.57348]}}, {"type": "Feature", "properties": {"name": "Beach 60 St", "routes": ["A"], "borough": "Q"}, "geometry": {"type": "Point", "coordinates": [-73.788522, 40.592374]}}, {"type": "Feature", "properties": {"name": "Burke Av", "routes": ["2", "5"], "borough": "Bx"}, "geometry": {"type": "Point", "coordinates": [-73.867164, 40.871356]}}, {"type": "Feature", "properties": {"name": "7 Av", "routes": ["B", "Q"], "borough": "Bk"}, "geometry": {"type": "Point", "coordinates": [-73.972367, 40.67705]}}, {"type": "Feature", "properties": {"name": "Sheepshead Bay", "routes": ["B", "Q"], "borough": "Bk"}, "geometry": {"type": "Point", "coordinates": [-73.954155, 40.586896]}}, {"type": "Feature", "properties": {"name": "9 Av", "routes": ["D"], "borough": "Bk"}, "geometry": {"type": "Point", "coordinates": [-73.994324, 40.646292]}}, {"type": "Feature", "properties": {"name": "W 4 St-Wash Sq", "routes": ["A", "B", "C", "D", "E", "F", "M"], "borough": "M"}, "geometry": {"type": "Point", "coordinates": [-74.000495, 40.732338]}}, {"type": "Feature", "properties": {"name": "Jamaica-Van Wyck", "routes": ["E"], "borough": "Q"}, "geometry": {"type": "Point", "coordinates": [-73.816859, 40.702566]}}, {"type": "Feature", "properties": {"name": "21 St", "routes": ["G"], "borough": "Q"}, "geometry": {"type": "Point", "coordinates": [-73.949724, 40.744065]}}, {"type": "Feature", "properties": {"name": "155 St", "routes": ["C"], "borough": "M"}, "geometry": {"type": "Point", "coordinates": [-73.941514, 40.830518]}}, {"type": "Feature", "properties": {"name": "167 St", "routes": ["4"], "borough": "Bx"}, "geometry": {"type": "Point", "coordinates": [-73.9214, 40.835537]}}, {"type": "Feature", "properties": {"name": "Van Cortlandt Park-242 St", "routes": ["1"], "borough": "Bx"}, "geometry": {"type": "Point", "coordinates": [-73.898583, 40.889248]}}, {"type": "Feature", "properties": {"name": "50 St", "routes": ["C", "E"], "borough": "M"}, "geometry": {"type": "Point", "coordinates": [-73.985984, 40.762456]}}, {"type": "Feature", "properties": {"name": "33 St", "routes": ["6"], "borough": "M"}, "geometry": {"type": "Point", "coordinates": [-73.982076, 40.746081]}}, {"type": "Feature", "properties": {"name": "79 St", "routes": ["1"], "borough": "M"}, "geometry": {"type": "Point", "coordinates": [-73.979917, 40.783934]}}, {"type": "Feature", "properties": {"name": "Kingston-Throop Avs", "routes": ["C"], "borough": "Bk"}, "geometry": {"type": "Point", "coordinates": [-73.940858, 40.679921]}}, {"type": "Feature", "properties": {"name": "219 St", "routes": ["2", "5"], "borough": "Bx"}, "geometry": {"type": "Point", "coordinates": [-73.862633, 40.883895]}}, {"type": "Feature", "properties": {"name": "Grand Av-Newtown", "routes": ["M", "R"], "borough": "Q"}, "geometry": {"type": "Point", "coordinates": [-73.877223, 40.737015]}}, {"type": "Feature", "properties": {"name": "New Utrecht Av", "routes": ["D", "N"], "borough": "Bk"}, "geometry": {"type": "Point", "coordinates": [-73.996624, 40.625657000000004]}}, {"type": "Feature", "properties": {"name": "145 St", "routes": ["A", "B", "C", "D"], "borough": "M"}, "geometry": {"type": "Point", "coordinates": [-73.944216, 40.824783]}}, {"type": "Feature", "properties": {"name": "Broadway", "routes": ["N", "W"], "borough": "Q"}, "geometry": {"type": "Point", "coordinates": [-73.925508, 40.76182]}}, {"type": "Feature", "properties": {"name": "Lafayette Av", "routes": ["C"], "borough": "Bk"}, "geometry": {"type": "Point", "coordinates": [-73.973946, 40.686113]}}, {"type": "Feature", "properties": {"name": "Avenue U", "routes": ["Q"], "borough": "Bk"}, "geometry": {"type": "Point", "coordinates": [-73.955929, 40.5993]}}, {"type": "Feature", "properties": {"name": "88 St", "routes": ["A"], "borough": "Q"}, "geometry": {"type": "Point", "coordinates": [-73.85147, 40.679843]}}, {"type": "Feature", "properties": {"name": "25 St", "routes": ["R"], "borough": "Bk"}, "geometry": {"type": "Point", "coordinates": [-73.998091, 40.660397]}}, {"type": "Feature", "properties": {"name": "46 St", "routes": ["M", "R"], "borough": "Q"}, "geometry": {"type": "Point", "coordinates": [-73.913333, 40.756312]}}, {"type": "Feature", "properties": {"name": "Fulton St", "routes": ["G"], "borough": "Bk"}, "geometry": {"type": "Point", "coordinates": [-73.975375, 40.687119]}}, {"type": "Feature", "properties": {"name": "Borough Hall", "routes": ["2", "3", "4", "5", "R"], "borough": "Bk"}, "geometry": {"type": "Point", "coordinates": [-73.990642, 40.693241]}}, {"type": "Feature", "properties": {"name": "116 St-Columbia University", "routes": ["1"], "borough": "M"}, "geometry": {"type": "Point", "coordinates": [-73.96411, 40.807722]}}, {"type": "Feature", "properties": {"name": "Parkchester", "routes": ["6"], "borough": "Bx"}, "geometry": {"type": "Point", "coordinates": [-73.860816, 40.833226]}}, {"type": "Feature", "properties": {"name": "23 St-Baruch College", "routes": ["6"], "borough": "M"}, "geometry": {"type": "Point", "coordinates": [-73.986599, 40.739864]}}, {"type": "Feature", "properties": {"name": "Beach 67 St", "routes": ["A"], "borough": "Q"}, "geometry": {"type": "Point", "coordinates": [-73.796924, 40.590927]}}, {"type": "Feature", "properties": {"name": "183 St", "routes": ["4"], "borough": "Bx"}, "geometry": {"type": "Point", "coordinates": [-73.903879, 40.858407]}}, {"type": "Feature", "properties": {"name": "Lexington Av/53 St", "routes": ["6", "E", "F"], "borough": "M"}, "geometry": {"type": "Point", "coordinates": [-73.97048749999999, 40.7573295]}}, {"type": "Feature", "properties": {"name": "Prospect Park", "routes": ["B", "Q", "S"], "borough": "Bk"}, "geometry": {"type": "Point", "coordinates": [-73.962246, 40.661614]}}, {"type": "Feature", "properties": {"name": "28 St", "routes": ["1"], "borough": "M"}, "geometry": {"type": "Point", "coordinates": [-73.993365, 40.747215]}}, {"type": "Feature", "properties": {"name": "City Hall", "routes": ["R", "W"], "borough": "M"}, "geometry": {"type": "Point", "coordinates": [-74.006978, 40.713282]}}, {"type": "Feature", "properties": {"name": "75 Av", "routes": ["E", "F"], "borough": "Q"}, "geometry": {"type": "Point", "coordinates": [-73.837324, 40.718331]}}, {"type": "Feature", "properties": {"name": "18 Av", "routes": ["N"], "borough": "Bk"}, "geometry": {"type": "Point", "coordinates": [-73.990414, 40.620671]}}, {"type": "Feature", "properties": {"name": "168 St-Washington Hts", "routes": ["1", "A", "C"], "borough": "M"}, "geometry": {"type": "Point", "coordinates": [-73.939847, 40.8406375]}}, {"type": "Feature", "properties": {"name": "145 St", "routes": ["3"], "borough": "M"}, "geometry": {"type": "Point", "coordinates": [-73.936245, 40.820421]}}, {"type": "Feature", "properties": {"name": "181 St", "routes": ["A"], "borough": "M"}, "geometry": {"type": "Point", "coordinates": [-73.937969, 40.851695]}}, {"type": "Feature", "properties": {"name": "215 St", "routes": ["1"], "borough": "M"}, "geometry": {"type": "Point", "coordinates": [-73.915279, 40.869444]}}, {"type": "Feature", "properties": {"name": "Gates Av", "routes": ["J", "Z"], "borough": "Bk"}, "geometry": {"type": "Point", "coordinates": [-73.92227, 40.68963]}}, {"type": "Feature", "properties": {"name": "40 St-Lowery St", "routes": ["7"], "borough": "Q"}, "geometry": {"type": "Point", "coordinates": [-73.924016, 40.743781]}}, {"type": "Feature", "properties": {"name": "Bergen St", "routes": ["F", "G"], "borough": "Bk"}, "geometry": {"type": "Point", "coordinates": [-73.990862, 40.686145]}}, {"type": "Feature", "properties": {"name": "Utica Av", "routes": ["A", "C"], "borough": "Bk"}, "geometry": {"type": "Point", "coordinates": [-73.930729, 40.679364]}}, {"type": "Feature", "properties": {"name": "72 St", "routes": ["Q"], "borough": "M"}, "geometry": {"type": "Point", "coordinates": [-73.958424, 40.768799]}}, {"type": "Feature", "properties": {"name": "Clark St", "routes": ["2", "3"], "borough": "Bk"}, "geometry": {"type": "Point", "coordinates": [-73.993086, 40.697466]}}, {"type": "Feature", "properties": {"name": "72 St", "routes": ["B", "C"], "borough": "M"}, "geometry": {"type": "Point", "coordinates": [-73.97641, 40.775594]}}, {"type": "Feature", "properties": {"name": "Shepherd Av", "routes": ["C"], "borough": "Bk"}, "geometry": {"type": "Point", "coordinates": [-73.88075, 40.67413]}}, {"type": "Feature", "properties": {"name": "59 St", "routes": ["N", "R"], "borough": "Bk"}, "geometry": {"type": "Point", "coordinates": [-74.017881, 40.641362]}}, {"type": "Feature", "properties": {"name": "Buhre Av", "routes": ["6"], "borough": "Bx"}, "geometry": {"type": "Point", "coordinates": [-73.832569, 40.84681]}}, {"type": "Feature", "properties": {"name": "77 St", "routes": ["6"], "borough": "M"}, "geometry": {"type": "Point", "coordinates": [-73.959874, 40.77362]}}, {"type": "Feature", "properties": {"name": "Avenue H", "routes": ["Q"], "borough": "Bk"}, "geometry": {"type": "Point", "coordinates": [-73.961639, 40.62927]}}, {"type": "Feature", "properties": {"name": "Rector St", "routes": ["1"], "borough": "M"}, "geometry": {"type": "Point", "coordinates": [-74.013783, 40.707513]}}, {"type": "Feature", "properties": {"name": "39 Av-Dutch Kills", "routes": ["N", "W"], "borough": "Q"}, "geometry": {"type": "Point", "coordinates": [-73.932755, 40.752882]}}, {"type": "Feature", "properties": {"name": "Bay Terrace", "routes": ["SIR"], "borough": "SI"}, "geometry": {"type": "Point", "coordinates": [-74.136907, 40.5564]}}, {"type": "Feature", "properties": {"name": "121 St", "routes": ["J", "Z"], "borough": "Q"}, "geometry": {"type": "Point", "coordinates": [-73.828294, 40.700492]}}, {"type": "Feature", "properties": {"name": "Houston St", "routes": ["1"], "borough": "M"}, "geometry": {"type": "Point", "coordinates": [-74.005367, 40.728251]}}, {"type": "Feature", "properties": {"name": "169 St", "routes": ["F"], "borough": "Q"}, "geometry": {"type": "Point", "coordinates": [-73.793604, 40.71047]}}, {"type": "Feature", "properties": {"name": "18 Av", "routes": ["F"], "borough": "Bk"}, "geometry": {"type": "Point", "coordinates": [-73.976971, 40.629755]}}, {"type": "Feature", "properties": {"name": "Eastchester-Dyre Av", "routes": ["5"], "borough": "Bx"}, "geometry": {"type": "Point", "coordinates": [-73.830834, 40.8883]}}, {"type": "Feature", "properties": {"name": "Flushing Av", "routes": ["G"], "borough": "Bk"}, "geometry": {"type": "Point", "coordinates": [-73.950234, 40.700377]}}, {"type": "Feature", "properties": {"name": "Sutter Av-Rutland Rd", "routes": ["3"], "borough": "Bk"}, "geometry": {"type": "Point", "coordinates": [-73.92261, 40.664717]}}, {"type": "Feature", "properties": {"name": "West Farms Sq-E Tremont Av", "routes": ["2", "5"], "borough": "Bx"}, "geometry": {"type": "Point", "coordinates": [-73.880049, 40.840295]}}, {"type": "Feature", "properties": {"name": "103 St", "routes": ["6"], "borough": "M"}, "geometry": {"type": "Point", "coordinates": [-73.947478, 40.7906]}}, {"type": "Feature", "properties": {"name": "Beach 25 St", "routes": ["A"], "borough": "Q"}, "geometry": {"type": "Point", "coordinates": [-73.761353, 40.600066]}}, {"type": "Feature", "properties": {"name": "8 St-NYU", "routes": ["R", "W"], "borough": "M"}, "geometry": {"type": "Point", "coordinates": [-73.992629, 40.730328]}}, {"type": "Feature", "properties": {"name": "Grand St", "routes": ["L"], "borough": "Bk"}, "geometry": {"type": "Point", "coordinates": [-73.94067, 40.711926]}}, {"type": "Feature", "properties": {"name": "Prince's Bay", "routes": ["SIR"], "borough": "SI"}, "geometry": {"type": "Point", "coordinates": [-74.200064, 40.525507]}}, {"type": "Feature", "properties": {"name": "Van Siclen Av", "routes": ["3"], "borough": "Bk"}, "geometry": {"type": "Point", "coordinates": [-73.889395, 40.665449]}}, {"type": "Feature", "properties": {"name": "Flushing-Main St", "routes": ["7"], "borough": "Q"}, "geometry": {"type": "Point", "coordinates": [-73.83003, 40.7596]}}, {"type": "Feature", "properties": {"name": "Botanic Garden", "routes": ["2", "3", "4", "5", "S"], "borough": "Bk"}, "geometry": {"type": "Point", "coordinates": [-73.958688, 40.6705125]}}, {"type": "Feature", "properties": {"name": "Fordham Rd", "routes": ["B", "D"], "borough": "Bx"}, "geometry": {"type": "Point", "coordinates": [-73.897749, 40.861296]}}, {"type": "Feature", "properties": {"name": "Bergen St", "routes": ["2", "3"], "borough": "Bk"}, "geometry": {"type": "Point", "coordinates": [-73.975098, 40.680829]}}, {"type": "Feature", "properties": {"name": "Myrtle-Wyckoff Avs", "routes": ["L", "M"], "borough": "Bk"}, "geometry": {"type": "Point", "coordinates": [-73.9119855, 40.699622000000005]}}, {"type": "Feature", "properties": {"name": "66 St-Lincoln Center", "routes": ["1"], "borough": "M"}, "geometry": {"type": "Point", "coordinates": [-73.982209, 40.77344]}}, {"type": "Feature", "properties": {"name": "7 Av", "routes": ["F", "G"], "borough": "Bk"}, "geometry": {"type": "Point", "coordinates": [-73.980305, 40.666271]}}, {"type": "Feature", "properties": {"name": "Cypress Av", "routes": ["6"], "borough": "Bx"}, "geometry": {"type": "Point", "coordinates": [-73.914042, 40.805368]}}, {"type": "Feature", "properties": {"name": "103 St", "routes": ["B", "C"], "borough": "M"}, "geometry": {"type": "Point", "coordinates": [-73.961454, 40.796092]}}, {"type": "Feature", "properties": {"name": "Howard Beach-JFK Airport", "routes": ["A"], "borough": "Q"}, "geometry": {"type": "Point", "coordinates": [-73.830301, 40.660476]}}, {"type": "Feature", "properties": {"name": "Church Av", "routes": ["2", "5"], "borough": "Bk"}, "geometry": {"type": "Point", "coordinates": [-73.949575, 40.650843]}}, {"type": "Feature", "properties": {"name": "74 St-Broadway", "routes": ["7", "E", "F", "M", "R"], "borough": "Q"}, "geometry": {"type": "Point", "coordinates": [-73.891366, 40.746746]}}, {"type": "Feature", "properties": {"name": "Alabama Av", "routes": ["J", "Z"], "borough": "Bk"}, "geometry": {"type": "Point", "coordinates": [-73.898654, 40.676992]}}, {"type": "Feature", "properties": {"name": "Bushwick Av-Aberdeen St", "routes": ["L"], "borough": "Bk"}, "geometry": {"type": "Point", "coordinates": [-73.905249, 40.682829]}}, {"type": "Feature", "properties": {"name": "Union St", "routes": ["R"], "borough": "Bk"}, "geometry": {"type": "Point", "coordinates": [-73.98311, 40.677316]}}, {"type": "Feature", "properties": {"name": "Grand Central-42 St", "routes": ["4", "5", "6", "7", "S"], "borough": "M"}, "geometry": {"type": "Point", "coordinates": [-73.97735933333333, 40.751992]}}, {"type": "Feature", "properties": {"name": "85 St-Forest Pkwy", "routes": ["J"], "borough": "Q"}, "geometry": {"type": "Point", "coordinates": [-73.86001, 40.692435]}}, {"type": "Feature", "properties": {"name": "Lexington Av/63 St", "routes": ["M", "Q"], "borough": "M"}, "geometry": {"type": "Point", "coordinates": [-73.966113, 40.764629]}}, {"type": "Feature", "properties": {"name": "Whitehall St-South Ferry", "routes": ["1", "R", "W"], "borough": "M"}, "geometry": {"type": "Point", "coordinates": [-74.013329, 40.7025775]}}, {"type": "Feature", "properties": {"name": "Simpson St", "routes": ["2", "5"], "borough": "Bx"}, "geometry": {"type": "Point", "coordinates": [-73.893064, 40.824073]}}, {"type": "Feature", "properties": {"name": "New Lots Av", "routes": ["L"], "borough": "Bk"}, "geometry": {"type": "Point", "coordinates": [-73.899232, 40.658733]}}, {"type": "Feature", "properties": {"name": "Allerton Av", "routes": ["2", "5"], "borough": "Bx"}, "geometry": {"type": "Point", "coordinates": [-73.867352, 40.865462]}}, {"type": "Feature", "properties": {"name": "Avenue U", "routes": ["F"], "borough": "Bk"}, "geometry": {"type": "Point", "coordinates": [-73.973357, 40.596063]}}, {"type": "Feature", "properties": {"name": "138 St-Grand Concourse", "routes": ["4", "5"], "borough": "Bx"}, "geometry": {"type": "Point", "coordinates": [-73.929849, 40.813224]}}, {"type": "Feature", "properties": {"name": "20 Av", "routes": ["D"], "borough": "Bk"}, "geometry": {"type": "Point", "coordinates": [-73.998168, 40.604556]}}, {"type": "Feature", "properties": {"name": "Fort Hamilton Pkwy", "routes": ["D"], "borough": "Bk"}, "geometry": {"type": "Point", "coordinates": [-73.994304, 40.640914]}}, {"type": "Feature", "properties": {"name": "15 St-Prospect Park", "routes": ["F", "G"], "borough": "Bk"}, "geometry": {"type": "Point", "coordinates": [-73.979493, 40.660365]}}, {"type": "Feature", "properties": {"name": "WTC Cortlandt", "routes": ["1"], "borough": "M"}, "geometry": {"type": "Point", "coordinates": [-74.012188, 40.711835]}}, {"type": "Feature", "properties": {"name": "Greenpoint Av", "routes": ["G"], "borough": "Bk"}, "geometry": {"type": "Point", "coordinates": [-73.954449, 40.731352]}}, {"type": "Feature", "properties": {"name": "1 Av", "routes": ["L"], "borough": "M"}, "geometry": {"type": "Point", "coordinates": [-73.981628, 40.730953]}}, {"type": "Feature", "properties": {"name": "Brighton Beach", "routes": ["B", "Q"], "borough": "Bk"}, "geometry": {"type": "Point", "coordinates": [-73.961376, 40.577621]}}, {"type": "Feature", "properties": {"name": "30 Av", "routes": ["N", "W"], "borough": "Q"}, "geometry": {"type": "Point", "coordinates": [-73.921479, 40.766779]}}, {"type": "Feature", "properties": {"name": "Mosholu Pkwy", "routes": ["4"], "borough": "Bx"}, "geometry": {"type": "Point", "coordinates": [-73.884655, 40.87975]}}, {"type": "Feature", "properties": {"name": "Far Rockaway-Mott Av", "routes": ["A"], "borough": "Q"}, "geometry": {"type": "Point", "coordinates": [-73.755405, 40.603995]}}, {"type": "Feature", "properties": {"name": "Pelham Bay Park", "routes": ["6"], "borough": "Bx"}, "geometry": {"type": "Point", "coordinates": [-73.828121, 40.852462]}}, {"type": "Feature", "properties": {"name": "Hunts Point Av", "routes": ["6"], "borough": "Bx"}, "geometry": {"type": "Point", "coordinates": [-73.890549, 40.820948]}}, {"type": "Feature", "properties": {"name": "Grasmere", "routes": ["SIR"], "borough": "SI"}, "geometry": {"type": "Point", "coordinates": [-74.084087, 40.603117]}}, {"type": "Feature", "properties": {"name": "Crescent St", "routes": ["J", "Z"], "borough": "Bk"}, "geometry": {"type": "Point", "coordinates": [-73.873785, 40.683194]}}, {"type": "Feature", "properties": {"name": "111 St", "routes": ["A"], "borough": "Q"}, "geometry": {"type": "Point", "coordinates": [-73.832163, 40.684331]}}, {"type": "Feature", "properties": {"name": "175 St", "routes": ["A"], "borough": "M"}, "geometry": {"type": "Point", "coordinates": [-73.939704, 40.847391]}}, {"type": "Feature", "properties": {"name": "Marble Hill-225 St", "routes": ["1"], "borough": "M"}, "geometry": {"type": "Point", "coordinates": [-73.909831, 40.874561]}}, {"type": "Feature", "properties": {"name": "86 St", "routes": ["1"], "borough": "M"}, "geometry": {"type": "Point", "coordinates": [-73.976218, 40.788644]}}, {"type": "Feature", "properties": {"name": "225 St", "routes": ["2", "5"], "borough": "Bx"}, "geometry": {"type": "Point", "coordinates": [-73.860341, 40.888022]}}, {"type": "Feature", "properties": {"name": "Elmhurst Av", "routes": ["M", "R"], "borough": "Q"}, "geometry": {"type": "Point", "coordinates": [-73.882017, 40.742454]}}, {"type": "Feature", "properties": {"name": "Parkside Av", "routes": ["Q"], "borough": "Bk"}, "geometry": {"type": "Point", "coordinates": [-73.961495, 40.655292]}}, {"type": "Feature", "properties": {"name": "Nostrand Av", "routes": ["3"], "borough": "Bk"}, "geometry": {"type": "Point", "coordinates": [-73.950466, 40.669847]}}, {"type": "Feature", "properties": {"name": "Junction Blvd", "routes": ["7"], "borough": "Q"}, "geometry": {"type": "Point", "coordinates": [-73.869527, 40.749145]}}, {"type": "Feature", "properties": {"name": "86 St", "routes": ["R"], "borough": "Bk"}, "geometry": {"type": "Point", "coordinates": [-74.028398, 40.622687]}}, {"type": "Feature", "properties": {"name": "170 St", "routes": ["4"], "borough": "Bx"}, "geometry": {"type": "Point", "coordinates": [-73.917791, 40.840075]}}, {"type": "Feature", "properties": {"name": "3 Av-149 St", "routes": ["2", "5"], "borough": "Bx"}, "geometry": {"type": "Point", "coordinates": [-73.917757, 40.816109]}}, {"type": "Feature", "properties": {"name": "207 St", "routes": ["1"], "borough": "M"}, "geometry": {"type": "Point", "coordinates": [-73.918822, 40.864621]}}, {"type": "Feature", "properties": {"name": "Broad Channel", "routes": ["A", "S"], "borough": "Q"}, "geometry": {"type": "Point", "coordinates": [-73.815925, 40.608382]}}, {"type": "Feature", "properties": {"name": "Clinton-Washington Avs", "routes": ["C"], "borough": "Bk"}, "geometry": {"type": "Point", "coordinates": [-73.965838, 40.683263]}}, {"type": "Feature", "properties": {"name": "Ralph Av", "routes": ["C"], "borough": "Bk"}, "geometry": {"type": "Point", "coordinates": [-73.920786, 40.678822]}}, {"type": "Feature", "properties": {"name": "69 St", "routes": ["7"], "borough": "Q"}, "geometry": {"type": "Point", "coordinates": [-73.896403, 40.746325]}}, {"type": "Feature", "properties": {"name": "Bay 50 St", "routes": ["D"], "borough": "Bk"}, "geometry": {"type": "Point", "coordinates": [-73.983765, 40.588841]}}, {"type": "Feature", "properties": {"name": "Woodhaven Blvd", "routes": ["M", "R"], "borough": "Q"}, "geometry": {"type": "Point", "coordinates": [-73.869229, 40.733106]}}, {"type": "Feature", "properties": {"name": "Tottenville", "routes": ["SIR"], "borough": "SI"}, "geometry": {"type": "Point", "coordinates": [-74.251961, 40.512764]}}, {"type": "Feature", "properties": {"name": "Queensboro Plaza", "routes": ["7", "N", "W"], "borough": "Q"}, "geometry": {"type": "Point", "coordinates": [-73.940202, 40.750582]}}, {"type": "Feature", "properties": {"name": "Lorimer St", "routes": ["J", "M"], "borough": "Bk"}, "geometry": {"type": "Point", "coordinates": [-73.947408, 40.703869]}}, {"type": "Feature", "properties": {"name": "Grant City", "routes": ["SIR"], "borough": "SI"}, "geometry": {"type": "Point", "coordinates": [-74.109704, 40.578965]}}, {"type": "Feature", "properties": {"name": "Sutphin Blvd-Archer Av-JFK Airport", "routes": ["E", "J", "Z"], "borough": "Q"}, "geometry": {"type": "Point", "coordinates": [-73.807969, 40.700486]}}, {"type": "Feature", "properties": {"name": "33 St-Rawson St", "routes": ["7"], "borough": "Q"}, "geometry": {"type": "Point", "coordinates": [-73.930997, 40.744587]}}, {"type": "Feature", "properties": {"name": "Cathedral Pkwy (110 St)", "routes": ["B", "C"], "borough": "M"}, "geometry": {"type": "Point", "coordinates": [-73.958161, 40.800603]}}, {"type": "Feature", "properties": {"name": "Kew Gardens-Union Tpke", "routes": ["E", "F"], "borough": "Q"}, "geometry": {"type": "Point", "coordinates": [-73.831008, 40.714441]}}, {"type": "Feature", "properties": {"name": "23 St", "routes": ["1"], "borough": "M"}, "geometry": {"type": "Point", "coordinates": [-73.995657, 40.744081]}}, {"type": "Feature", "properties": {"name": "Hoyt-Schermerhorn Sts", "routes": ["A", "C", "G"], "borough": "Bk"}, "geometry": {"type": "Point", "coordinates": [-73.985001, 40.688484]}}, {"type": "Feature", "properties": {"name": "135 St", "routes": ["2", "3"], "borough": "M"}, "geometry": {"type": "Point", "coordinates": [-73.94077, 40.814229]}}, {"type": "Feature", "properties": {"name": "20 Av", "routes": ["N"], "borough": "Bk"}, "geometry": {"type": "Point", "coordinates": [-73.985026, 40.61741]}}, {"type": "Feature", "properties": {"name": "190 St", "routes": ["A"], "borough": "M"}, "geometry": {"type": "Point", "coordinates": [-73.93418, 40.859022]}}, {"type": "Feature", "properties": {"name": "Clinton-Washington Avs", "routes": ["G"], "borough": "Bk"}, "geometry": {"type": "Point", "coordinates": [-73.966839, 40.688089]}}, {"type": "Feature", "properties": {"name": "E 143 St-St Mary's St", "routes": ["6"], "borough": "Bx"}, "geometry": {"type": "Point", "coordinates": [-73.907657, 40.808719]}}, {"type": "Feature", "properties": {"name": "Halsey St", "routes": ["J"], "borough": "Bk"}, "geometry": {"type": "Point", "coordinates": [-73.916559, 40.68637]}}, {"type": "Feature", "properties": {"name": "Grand St", "routes": ["B", "D"], "borough": "M"}, "geometry": {"type": "Point", "coordinates": [-73.993753, 40.718267]}}, {"type": "Feature", "properties": {"name": "86 St", "routes": ["N"], "borough": "Bk"}, "geometry": {"type": "Point", "coordinates": [-73.97823, 40.592721]}}, {"type": "Feature", "properties": {"name": "Saratoga Av", "routes": ["3"], "borough": "Bk"}, "geometry": {"type": "Point", "coordinates": [-73.916327, 40.661453]}}, {"type": "Feature", "properties": {"name": "Great Kills", "routes": ["SIR"], "borough": "SI"}, "geometry": {"type": "Point", "coordinates": [-74.151399, 40.551231]}}, {"type": "Feature", "properties": {"name": "Seneca Av", "routes": ["M"], "borough": "Q"}, "geometry": {"type": "Point", "coordinates": [-73.90774, 40.702762]}}, {"type": "Feature", "properties": {"name": "Rockaway Park-Beach 116 St", "routes": ["A", "S"], "borough": "Q"}, "geometry": {"type": "Point", "coordinates": [-73.835592, 40.580903]}}, {"type": "Feature", "properties": {"name": "Montrose Av", "routes": ["L"], "borough": "Bk"}, "geometry": {"type": "Point", "coordinates": [-73.93985, 40.707739]}}, {"type": "Feature", "properties": {"name": "167 St", "routes": ["B", "D"], "borough": "Bx"}, "geometry": {"type": "Point", "coordinates": [-73.91844, 40.833771]}}, {"type": "Feature", "properties": {"name": "New Lots Av", "routes": ["3"], "borough": "Bk"}, "geometry": {"type": "Point", "coordinates": [-73.884079, 40.666235]}}, {"type": "Feature", "properties": {"name": "Pleasant Plains", "routes": ["SIR"], "borough": "SI"}, "geometry": {"type": "Point", "coordinates": [-74.217847, 40.52241]}}, {"type": "Feature", "properties": {"name": "Baychester Av", "routes": ["5"], "borough": "Bx"}, "geometry": {"type": "Point", "coordinates": [-73.838591, 40.878663]}}, {"type": "Feature", "properties": {"name": "Myrtle-Willoughby Avs", "routes": ["G"], "borough": "Bk"}, "geometry": {"type": "Point", "coordinates": [-73.949046, 40.694568]}}, {"type": "Feature", "properties": {"name": "174 St", "routes": ["2", "5"], "borough": "Bx"}, "geometry": {"type": "Point", "coordinates": [-73.887734, 40.837288]}}, {"type": "Feature", "properties": {"name": "Fordham Rd", "routes": ["4"], "borough": "Bx"}, "geometry": {"type": "Point", "coordinates": [-73.901034, 40.862803]}}, {"type": "Feature", "properties": {"name": "81 St-Museum of Natural History", "routes": ["B", "C"], "borough": "M"}, "geometry": {"type": "Point", "coordinates": [-73.972143, 40.781433]}}, {"type": "Feature", "properties": {"name": "St George", "routes": ["SIR"], "borough": "SI"}, "geometry": {"type": "Point", "coordinates": [-74.073643, 40.643748]}}, {"type": "Feature", "properties": {"name": "Van Siclen Av", "routes": ["C"], "borough": "Bk"}, "geometry": {"type": "Point", "coordinates": [-73.890358, 40.67271]}}, {"type": "Feature", "properties": {"name": "157 St", "routes": ["1"], "borough": "M"}, "geometry": {"type": "Point", "coordinates": [-73.94489, 40.834041]}}, {"type": "Feature", "properties": {"name": "Middletown Rd", "routes": ["6"], "borough": "Bx"}, "geometry": {"type": "Point", "coordinates": [-73.836322, 40.843863]}}, {"type": "Feature", "properties": {"name": "Prospect Av", "routes": ["R"], "borough": "Bk"}, "geometry": {"type": "Point", "coordinates": [-73.992872, 40.665414]}}, {"type": "Feature", "properties": {"name": "Park Pl", "routes": ["S"], "borough": "Bk"}, "geometry": {"type": "Point", "coordinates": [-73.957624, 40.674772]}}, {"type": "Feature", "properties": {"name": "Newkirk Plaza", "routes": ["B", "Q"], "borough": "Bk"}, "geometry": {"type": "Point", "coordinates": [-73.962793, 40.635082]}}, {"type": "Feature", "properties": {"name": "Steinway St", "routes": ["M", "R"], "borough": "Q"}, "geometry": {"type": "Point", "coordinates": [-73.92074, 40.756879]}}, {"type": "Feature", "properties": {"name": "Parsons Blvd", "routes": ["F"], "borough": "Q"}, "geometry": {"type": "Point", "coordinates": [-73.803326, 40.707564]}}, {"type": "Feature", "properties": {"name": "Christopher St-Stonewall", "routes": ["1"], "borough": "M"}, "geometry": {"type": "Point", "coordinates": [-74.002906, 40.733422]}}, {"type": "Feature", "properties": {"name": "Bowling Green", "routes": ["4", "5"], "borough": "M"}, "geometry": {"type": "Point", "coordinates": [-74.014065, 40.704817]}}, {"type": "Feature", "properties": {"name": "St Lawrence Av", "routes": ["6"], "borough": "Bx"}, "geometry": {"type": "Point", "coordinates": [-73.867618, 40.831509]}}, {"type": "Feature", "properties": {"name": "125 St", "routes": ["1"], "borough": "M"}, "geometry": {"type": "Point", "coordinates": [-73.958372, 40.815581]}}, {"type": "Feature", "properties": {"name": "York St", "routes": ["F"], "borough": "Bk"}, "geometry": {"type": "Point", "coordinates": [-73.986751, 40.701397]}}, {"type": "Feature", "properties": {"name": "Avenue I", "routes": ["F"], "borough": "Bk"}, "geometry": {"type": "Point", "coordinates": [-73.976127, 40.625322]}}, {"type": "Feature", "properties": {"name": "55 St", "routes": ["D"], "borough": "Bk"}, "geometry": {"type": "Point", "coordinates": [-73.995476, 40.631435]}}, {"type": "Feature", "properties": {"name": "Beach 36 St", "routes": ["A"], "borough": "Q"}, "geometry": {"type": "Point", "coordinates": [-73.768175, 40.595398]}}, {"type": "Feature", "properties": {"name": "Broad St", "routes": ["J", "Z"], "borough": "M"}, "geometry": {"type": "Point", "coordinates": [-74.011056, 40.706476]}}, {"type": "Feature", "properties": {"name": "96 St", "routes": ["6"], "borough": "M"}, "geometry": {"type": "Point", "coordinates": [-73.95107, 40.785672]}}, {"type": "Feature", "properties": {"name": "34 St-Herald Sq", "routes": ["B", "D", "F", "M", "N", "Q", "R", "W"], "borough": "M"}, "geometry": {"type": "Point", "coordinates": [-73.9878865, 40.749643]}}, {"type": "Feature", "properties": {"name": "182-183 Sts", "routes": ["B", "D"], "borough": "Bx"}, "geometry": {"type": "Point", "coordinates": [-73.900741, 40.856093]}}, {"type": "Feature", "properties": {"name": "135 St", "routes": ["B", "C"], "borough": "M"}, "geometry": {"type": "Point", "coordinates": [-73.947649, 40.817894]}}, {"type": "Feature", "properties": {"name": "Pelham Pkwy", "routes": ["2", "5"], "borough": "Bx"}, "geometry": {"type": "Point", "coordinates": [-73.867615, 40.857192]}}, {"type": "Feature", "properties": {"name": "Bay Pkwy", "routes": ["N"], "borough": "Bk"}, "geometry": {"type": "Point", "coordinates": [-73.981848, 40.611815]}}, {"type": "Feature", "properties": {"name": "125 St", "routes": ["2", "3"], "borough": "M"}, "geometry": {"type": "Point", "coordinates": [-73.945495, 40.807754]}}, {"type": "Feature", "properties": {"name": "50 St", "routes": ["D"], "borough": "Bk"}, "geometry": {"type": "Point", "coordinates": [-73.994791, 40.63626]}}, {"type": "Feature", "properties": {"name": "Bay Ridge-95 St", "routes": ["R"], "borough": "Bk"}, "geometry": {"type": "Point", "coordinates": [-74.030876, 40.616622]}}, {"type": "Feature", "properties": {"name": "Nassau Av", "routes": ["G"], "borough": "Bk"}, "geometry": {"type": "Point", "coordinates": [-73.951277, 40.724635]}}, {"type": "Feature", "properties": {"name": "Spring St", "routes": ["C", "E"], "borough": "M"}, "geometry": {"type": "Point", "coordinates": [-74.003739, 40.726227]}}, {"type": "Feature", "properties": {"name": "Mt Eden Av", "routes": ["4"], "borough": "Bx"}, "geometry": {"type": "Point", "coordinates": [-73.914685, 40.844434]}}, {"type": "Feature", "properties": {"name": "Jamaica Center-Parsons/Archer", "routes": ["E", "J", "Z"], "borough": "Q"}, "geometry": {"type": "Point", "coordinates": [-73.801109, 40.702147]}}, {"type": "Feature", "properties": {"name": "Dyckman St", "routes": ["1"], "borough": "M"}, "geometry": {"type": "Point", "coordinates": [-73.925536, 40.860531]}}, {"type": "Feature", "properties": {"name": "53 St", "routes": ["R"], "borough": "Bk"}, "geometry": {"type": "Point", "coordinates": [-74.014034, 40.645069]}}, {"type": "Feature", "properties": {"name": "80 St", "routes": ["A"], "borough": "Q"}, "geometry": {"type": "Point", "coordinates": [-73.858992, 40.679371]}}, {"type": "Feature", "properties": {"name": "Rockaway Av", "routes": ["C"], "borough": "Bk"}, "geometry": {"type": "Point", "coordinates": [-73.911946, 40.67834]}}, {"type": "Feature", "properties": {"name": "Kings Hwy", "routes": ["B", "Q"], "borough": "Bk"}, "geometry": {"type": "Point", "coordinates": [-73.957734, 40.60867]}}, {"type": "Feature", "properties": {"name": "86 St", "routes": ["4", "5", "6"], "borough": "M"}, "geometry": {"type": "Point", "coordinates": [-73.955589, 40.779492]}}, {"type": "Feature", "properties": {"name": "Astoria Blvd", "routes": ["N", "W"], "borough": "Q"}, "geometry": {"type": "Point", "coordinates": [-73.917843, 40.770258]}}, {"type": "Feature", "properties": {"name": "Freeman St", "routes": ["2", "5"], "borough": "Bx"}, "geometry": {"type": "Point", "coordinates": [-73.891865, 40.829993]}}, {"type": "Feature", "properties": {"name": "Norwood-205 St", "routes": ["D"], "borough": "Bx"}, "geometry": {"type": "Point", "coordinates": [-73.878855, 40.874811]}}, {"type": "Feature", "properties": {"name": "103 St-Corona Plaza", "routes": ["7"], "borough": "Q"}, "geometry": {"type": "Point", "coordinates": [-73.8627, 40.749865]}}, {"type": "Feature", "properties": {"name": "Winthrop St", "routes": ["2", "5"], "borough": "Bk"}, "geometry": {"type": "Point", "coordinates": [-73.9502, 40.656652]}}, {"type": "Feature", "properties": {"name": "4 Av-9 St", "routes": ["F", "G", "R"], "borough": "Bk"}, "geometry": {"type": "Point", "coordinates": [-73.9890405, 40.670559499999996]}}, {"type": "Feature", "properties": {"name": "Fort Hamilton Pkwy", "routes": ["F", "G"], "borough": "Bk"}, "geometry": {"type": "Point", "coordinates": [-73.975776, 40.650782]}}, {"type": "Feature", "properties": {"name": "Avenue X", "routes": ["F"], "borough": "Bk"}, "geometry": {"type": "Point", "coordinates": [-73.97425, 40.58962]}}, {"type": "Feature", "properties": {"name": "233 St", "routes": ["2", "5"], "borough": "Bx"}, "geometry": {"type": "Point", "coordinates": [-73.857473, 40.893193]}}, {"type": "Feature", "properties": {"name": "DeKalb Av", "routes": ["L"], "borough": "Bk"}, "geometry": {"type": "Point", "coordinates": [-73.918425, 40.703811]}}, {"type": "Feature", "properties": {"name": "East 105 St", "routes": ["L"], "borough": "Bk"}, "geometry": {"type": "Point", "coordinates": [-73.899485, 40.650573]}}, {"type": "Feature", "properties": {"name": "Vernon Blvd-Jackson Av", "routes": ["7"], "borough": "Q"}, "geometry": {"type": "Point", "coordinates": [-73.953581, 40.742626]}}, {"type": "Feature", "properties": {"name": "125 St", "routes": ["4", "5", "6"], "borough": "M"}, "geometry": {"type": "Point", "coordinates": [-73.937594, 40.804138]}}, {"type": "Feature", "properties": {"name": "Jefferson Av", "routes": ["SIR"], "borough": "SI"}, "geometry": {"type": "Point", "coordinates": [-74.103338, 40.583591]}}, {"type": "Feature", "properties": {"name": "Chambers St", "routes": ["1", "2", "3"], "borough": "M"}, "geometry": {"type": "Point", "coordinates": [-74.009266, 40.715478]}}, {"type": "Feature", "properties": {"name": "Ozone Park-Lefferts Blvd", "routes": ["A"], "borough": "Q"}, "geometry": {"type": "Point", "coordinates": [-73.825798, 40.685951]}}, {"type": "Feature", "properties": {"name": "18 Av", "routes": ["D"], "borough": "Bk"}, "geometry": {"type": "Point", "coordinates": [-74.001736, 40.607954]}}, {"type": "Feature", "properties": {"name": "Bowery", "routes": ["J", "Z"], "borough": "M"}, "geometry": {"type": "Point", "coordinates": [-73.993915, 40.72028]}}, {"type": "Feature", "properties": {"name": "Astor Pl", "routes": ["6"], "borough": "M"}, "geometry": {"type": "Point", "coordinates": [-73.99107, 40.730054]}}, {"type": "Feature", "properties": {"name": "Church Av", "routes": ["B", "Q"], "borough": "Bk"}, "geometry": {"type": "Point", "coordinates": [-73.962982, 40.650527]}}, {"type": "Feature", "properties": {"name": "Chauncey St", "routes": ["J", "Z"], "borough": "Bk"}, "geometry": {"type": "Point", "coordinates": [-73.910456, 40.682893]}}, {"type": "Feature", "properties": {"name": "61 St-Woodside", "routes": ["7"], "borough": "Q"}, "geometry": {"type": "Point", "coordinates": [-73.902984, 40.74563]}}, {"type": "Feature", "properties": {"name": "Ocean Pkwy", "routes": ["Q"], "borough": "Bk"}, "geometry": {"type": "Point", "coordinates": [-73.968501, 40.576312]}}, {"type": "Feature", "properties": {"name": "Norwood Av", "routes": ["J", "Z"], "borough": "Bk"}, "geometry": {"type": "Point", "coordinates": [-73.880039, 40.68141]}}, {"type": "Feature", "properties": {"name": "231 St", "routes": ["1"], "borough": "Bx"}, "geometry": {"type": "Point", "coordinates": [-73.904834, 40.878856]}}, {"type": "Feature", "properties": {"name": "63 Dr-Rego Park", "routes": ["M", "R"], "borough": "Q"}, "geometry": {"type": "Point", "coordinates": [-73.861604, 40.729846]}}, {"type": "Feature", "properties": {"name": "34 St-Penn Station", "routes": ["A", "C", "E"], "borough": "M"}, "geometry": {"type": "Point", "coordinates": [-73.993391, 40.752287]}}, {"type": "Feature", "properties": {"name": "Beach 90 St", "routes": ["A", "S"], "borough": "Q"}, "geometry": {"type": "Point", "coordinates": [-73.813641, 40.588034]}}, {"type": "Feature", "properties": {"name": "50 St", "routes": ["1"], "borough": "M"}, "geometry": {"type": "Point", "coordinates": [-73.983849, 40.761728]}}, {"type": "Feature", "properties": {"name": "96 St", "routes": ["1", "2", "3"], "borough": "M"}, "geometry": {"type": "Point", "coordinates": [-73.972323, 40.793919]}}, {"type": "Feature", "properties": {"name": "8 Av", "routes": ["N"], "borough": "Bk"}, "geometry": {"type": "Point", "coordinates": [-74.011719, 40.635064]}}, {"type": "Feature", "properties": {"name": "Richmond Valley", "routes": ["SIR"], "borough": "SI"}, "geometry": {"type": "Point", "coordinates": [-74.229141, 40.519631]}}, {"type": "Feature", "properties": {"name": "Flatbush Av-Brooklyn College", "routes": ["2", "5"], "borough": "Bk"}, "geometry": {"type": "Point", "coordinates": [-73.947642, 40.632836]}}, {"type": "Feature", "properties": {"name": "Woodlawn", "routes": ["4"], "borough": "Bx"}, "geometry": {"type": "Point", "coordinates": [-73.878751, 40.886037]}}, {"type": "Feature", "properties": {"name": "Morris Park", "routes": ["5"], "borough": "Bx"}, "geometry": {"type": "Point", "coordinates": [-73.860495, 40.854364]}}, {"type": "Feature", "properties": {"name": "Whitlock Av", "routes": ["6"], "borough": "Bx"}, "geometry": {"type": "Point", "coordinates": [-73.886283, 40.826525]}}, {"type": "Feature", "properties": {"name": "Flushing Av", "routes": ["J", "M"], "borough": "Bk"}, "geometry": {"type": "Point", "coordinates": [-73.941126, 40.70026]}}, {"type": "Feature", "properties": {"name": "Clifton", "routes": ["SIR"], "borough": "SI"}, "geometry": {"type": "Point", "coordinates": [-74.071402, 40.621319]}}, {"type": "Feature", "properties": {"name": "Jackson Av", "routes": ["2", "5"], "borough": "Bx"}, "geometry": {"type": "Point", "coordinates": [-73.907807, 40.81649]}}, {"type": "Feature", "properties": {"name": "Tremont Av", "routes": ["B", "D"], "borough": "Bx"}, "geometry": {"type": "Point", "coordinates": [-73.905227, 40.85041]}}, {"type": "Feature", "properties": {"name": "Bedford Av", "routes": ["L"], "borough": "Bk"}, "geometry": {"type": "Point", "coordinates": [-73.956872, 40.717304]}}, {"type": "Feature", "properties": {"name": "Roosevelt Island", "routes": ["M"], "borough": "M"}, "geometry": {"type": "Point", "coordinates": [-73.95326, 40.759145]}}, {"type": "Feature", "properties": {"name": "Woodhaven Blvd", "routes": ["J", "Z"], "borough": "Q"}, "geometry": {"type": "Point", "coordinates": [-73.851576, 40.693879]}}, {"type": "Feature", "properties": {"name": "Eltingville", "routes": ["SIR"], "borough": "SI"}, "geometry": {"type": "Point", "coordinates": [-74.16457, 40.544601]}}, {"type": "Feature", "properties": {"name": "2 Av", "routes": ["F"], "borough": "M"}, "geometry": {"type": "Point", "coordinates": [-73.989938, 40.723402]}}, {"type": "Feature", "properties": {"name": "Rockaway Av", "routes": ["3"], "borough": "Bk"}, "geometry": {"type": "Point", "coordinates": [-73.908946, 40.662549]}}]}